[
{
  "name": "JobWatch",
  "description": "JobWatch is an Employment Rights Legal Centre which provides a free and confidential telephone information and referral service to Victorian workers about their rights at work.",
  "address": [
    {
      "address": "599 Little Bourke Street, Melbourne",
      "lat":-37.815571,
      "long":144.954636
    }],
  "tel": "1800 056 449",
  "email": "info@studymelbourne.vic.gov.au",
  "webSite": "http://www.jobwatch.org.au/index.php",
  "field": "Legal services"
},
{
  "name": "Fair Work Ombudsman",
  "description": "The Fair Work Ombudsman investigates and prosecutes alleged breaches of awards, workplace agreements and the Commonwealth Workplace Relations Act 1996.",
  "address": [
    {
      "address": "Level 6 414 La Trobe Street Melbourne VIC",
      "lat":-37.811338,
      "long":144.957135
    }],
  "tel": "13 13 94",
  "email": "websitefeedback@fwo.gov.au",
  "webSite": "https://www.fairwork.gov.au",
  "field": "Complaints"
},
{
  "name": "Australian Council of Trade Unions",
  "description": "Trade unions can help their members with many employment issues, including pay conditions, unfair dismissals and apprenticeship and traineeship disputes, under state and Commonwealth awards. They can also help members with workers’ compensation disputes under state and Commonwealth awards.",
  "address": [
    {
      "address": "Level 4/365 Queen Street Melbourne Victoria",
      "lat":-37.809858,
      "long":144.958067
    }],
  "tel": "03 9664 7333",
  "email": "help@actu.org.au",
  "webSite": "http://www.actu.org.au/",
  "field": "Workplace rights"
},
{
  "name": "WorkSafe Victoria",
  "description": "WorkSafe Victoria manages the workers compensation scheme and investigates breaches of occupational health and safety laws. There is information on their website about making a claim and returning to work after you are injured at work.",
  "address": [
    {
      "address": "Ground Floor 222 Exhibition Street Melbourne",
      "lat":-37.810727,
      "long":144.970238
    },
    {
      "address": "Office 1, Level 2 Central Square 18 Armstrong Street South Ballarat",
      "lat":-37.563128,
      "long":143.855303
    },
    {
      "address": "104 Queen Street",
      "lat":-37.869793,
      "long":144.831986
    },
    {
      "address": "171-191 Hammond Avenue Cnr English Street Essendon Fields",
      "lat":-37.725859,
      "long":144.892545
    },
    {
      "address": "Level 1, 1 Yarra Street",
      "lat":-37.838531,
      "long":144.992854
    },
    {
      "address": "78 Lemon Avenue",
      "lat":-34.188986,
      "long":142.164567
    },
    {
      "address": "37 Dunlop Road",
      "lat":-37.910258,
      "long":145.158704
    },
    {
      "address": "148-150 Welsford Street",
      "lat":-36.380521,
      "long":145.397407
    },
    {
      "address": "Suites 1 & 2, 6-8 Grey Street",
      "lat":-38.193622,
      "long":146.541644
    },
    {
      "address": "24 Reid Street",
      "lat":-36.355330,
      "long":146.327780
    },
    {
      "address": "76 Henna St",
      "lat":-38.378252,
      "long":142.478770
    }],
  "tel": "03 9641 1444",
  "email": "info@worksafe.vic.gov.au",
  "webSite": "http://www.worksafe.vic.gov.au/home",
  "field": "WorkSafe Victoria"
},
{
  "name": "WorkCover Assist ",
  "description": "WorkCover Assist is a free service provided by WorkSafe Victoria to help injured workers who have a workcover dispute with their employer. The staff will explain the conciliation process and will attend a conciliation conference to assist the employee.",
  "address": [
    {
      "address": "GPO Box 2923 Melbourne",
      "lat":-37.813628,
      "long":144.963058
    }],
  "tel": "9941 0537",
  "email": "workcoverassist@workcoverassist.vic.gov.au",
  "webSite": "http://www.workcoverassist.vic.gov.au/home",
  "field": "WorkSafe Victoria"
},
{
  "name": "Australian Taxation Office",
  "description": "Contact the Australian Tax Office's Superannuation Hotline on 131 020 for enquiries and services on superannuation.",
  "address": [
    {
      "address": "Dandenong Service Centre Level 1, 27–29 Robinson St DANDENONG  VIC",
      "lat":-37.987701,
      "long":145.210702
    },
    {
      "address": "Geelong Service Centre 12–14 Little Ryrie St GEELONG  VIC",
      "lat":-38.149344,
      "long":144.355199
    },
    {
      "address": "Collins Square 747 Collins St DOCKLANDS VIC",
      "lat":-37.820897,
      "long":144.949167
    }],
  "tel": "13 28 61",
  "email": "ReportEmailFraud@ato.gov.au",
  "webSite": "https://www.ato.gov.au/",
  "field": "Superannuation"
},
{
  "name": "Department of Industry ",
  "description": "If you are an independent contractor, the Department of Industry has information about your rights and a range of support services. You can also call its hotline on 13 28 46 to speak to an advisor about a range of independent contracting matters.",
  "address": [
    {
      "address": "Industry House 10 Binara Street Canberra ACT",
      "lat":-35.281738,
      "long":149.134011
    }],
  "tel": "02 6213 6000",
  "email": "enquiries@industry.gov.au",
  "webSite": "http://www.industry.gov.au/Pages/default.aspx",
  "field": "Support for independent contractors"
},
{
  "name": "Community legal centre",
  "description": "Your local community legal centre can give you legal information and advice. Most services are free.",
  "address": [
    {
      "address": "Level 3, 225 Bourke Street, Melbourne VIC",
      "lat":-37.813348,
      "long":144.967053
    }],
  "tel": "03 9652 1500",
  "email": "administration@fclc.org.au",
  "webSite": "http://www.fclc.org.au/",
  "field": "Legal services"
}
]